%time,field.header.seq,field.header.stamp,field.header.frame_id,field.status.status,field.status.service,field.latitude,field.longitude,field.altitude,field.position_covariance0,field.position_covariance1,field.position_covariance2,field.position_covariance3,field.position_covariance4,field.position_covariance5,field.position_covariance6,field.position_covariance7,field.position_covariance8,field.position_covariance_type
1747640552556138529,1,1747640552535761106,,2,1,35.8869743347168,128.61151123046875,0.0,0.0,0.0,0.0,0.0,0.0,0.0,0.0,0.0,0.0,0
1747640552801631693,2,1747640552781761106,,2,1,35.8869743347168,128.61151123046875,0.0,0.0,0.0,0.0,0.0,0.0,0.0,0.0,0.0,0.0,0
1747640553057647942,3,1747640553041357236,,2,1,35.8869743347168,128.61151123046875,0.0,0.0,0.0,0.0,0.0,0.0,0.0,0.0,0.0,0.0,0
1747640553553872594,4,1747640553536357236,,2,1,35.8869743347168,128.61151123046875,0.0,0.0,0.0,0.0,0.0,0.0,0.0,0.0,0.0,0.0,0
1747640554059520302,5,1747640554040357236,,2,1,35.8869743347168,128.61151123046875,0.0,0.0,0.0,0.0,0.0,0.0,0.0,0.0,0.0,0.0,0
1747640554564107314,6,1747640554546357236,,-1,1,35.8869743347168,128.0,0.0,0.0,0.0,0.0,0.0,0.0,0.0,0.0,0.0,0.0,0
1747640554799853869,7,1747640554780357236,,2,1,35.8869743347168,128.61151123046875,0.0,0.0,0.0,0.0,0.0,0.0,0.0,0.0,0.0,0.0,0
1747640555548248921,8,1747640555531930385,,2,1,35.8869743347168,128.61151123046875,0.0,0.0,0.0,0.0,0.0,0.0,0.0,0.0,0.0,0.0,0
1747640555804193796,9,1747640555786930385,,2,1,35.8869743347168,128.61151123046875,0.0,0.0,0.0,0.0,0.0,0.0,0.0,0.0,0.0,0.0,0
1747640556058699388,10,1747640556041930385,,2,1,35.8869743347168,128.61151123046875,0.0,0.0,0.0,0.0,0.0,0.0,0.0,0.0,0.0,0.0,0
1747640556304810055,11,1747640556286930385,,2,1,35.8869743347168,128.61151123046875,0.0,0.0,0.0,0.0,0.0,0.0,0.0,0.0,0.0,0.0,0
1747640556549940277,12,1747640556531930385,,2,1,35.8869743347168,128.61151123046875,0.0,0.0,0.0,0.0,0.0,0.0,0.0,0.0,0.0,0.0,0
1747640556805553460,13,1747640556786930385,,2,1,35.8869743347168,128.61151123046875,0.0,0.0,0.0,0.0,0.0,0.0,0.0,0.0,0.0,0.0,0
1747640557059810639,14,1747640557041930385,,2,1,35.8869743347168,128.61151123046875,0.0,0.0,0.0,0.0,0.0,0.0,0.0,0.0,0.0,0.0,0
1747640557305138982,15,1747640557286930385,,2,1,35.8869743347168,128.61151123046875,0.0,0.0,0.0,0.0,0.0,0.0,0.0,0.0,0.0,0.0,0
1747640557802394542,16,1747640557782930385,,2,1,35.8869743347168,128.61151123046875,0.0,0.0,0.0,0.0,0.0,0.0,0.0,0.0,0.0,0.0,0
1747640558058035750,17,1747640558043179927,,2,1,35.8869743347168,128.61151123046875,0.0,0.0,0.0,0.0,0.0,0.0,0.0,0.0,0.0,0.0,0
1747640558304457304,18,1747640558287179927,,2,1,35.8869743347168,128.61151123046875,0.0,0.0,0.0,0.0,0.0,0.0,0.0,0.0,0.0,0.0,0
1747640559322727936,19,1747640559305179927,,-1,1,35.8869743347168,128.61151123046875,0.0,0.0,0.0,0.0,0.0,0.0,0.0,0.0,0.0,0.0,0
1747640559798509673,20,1747640559780179927,,2,1,35.8869743347168,128.61151123046875,0.0,0.0,0.0,0.0,0.0,0.0,0.0,0.0,0.0,0.0,0
1747640560053773815,21,1747640560035179927,,2,1,35.8869743347168,128.61151123046875,0.0,0.0,0.0,0.0,0.0,0.0,0.0,0.0,0.0,0.0,0
1747640560307556862,22,1747640560290179927,,2,1,35.8869743347168,128.61151123046875,0.0,0.0,0.0,0.0,0.0,0.0,0.0,0.0,0.0,0.0,0
1747640560556375246,23,1747640560540633369,,2,1,35.8869743347168,128.61151123046875,0.0,0.0,0.0,0.0,0.0,0.0,0.0,0.0,0.0,0.0,0
1747640560801537772,24,1747640560785633369,,2,1,35.8869743347168,128.61151123046875,0.0,0.0,0.0,0.0,0.0,0.0,0.0,0.0,0.0,0.0,0
1747640561057040135,25,1747640561040633369,,2,1,35.8869743347168,128.61151123046875,0.0,0.0,0.0,0.0,0.0,0.0,0.0,0.0,0.0,0.0,0
1747640561301345776,26,1747640561285633369,,2,1,35.8869743347168,128.61151123046875,0.0,0.0,0.0,0.0,0.0,0.0,0.0,0.0,0.0,0.0,0
1747640561557718946,27,1747640561540633369,,2,1,35.8869743347168,128.61151123046875,0.0,0.0,0.0,0.0,0.0,0.0,0.0,0.0,0.0,0.0,0
1747640562064370077,28,1747640562045633369,,-1,1,78.03333282470703,35.8869743347168,0.0,0.0,0.0,0.0,0.0,0.0,0.0,0.0,0.0,0.0,0
1747640562076290949,29,1747640562059633369,,2,1,35.8869743347168,128.61151123046875,0.0,0.0,0.0,0.0,0.0,0.0,0.0,0.0,0.0,0.0,0
1747640562331896592,30,1747640562313633369,,2,1,35.8869743347168,128.61151123046875,0.0,0.0,0.0,0.0,0.0,0.0,0.0,0.0,0.0,0.0,0
1747640563060846907,31,1747640563044001022,,2,1,35.8869743347168,128.61151123046875,0.0,0.0,0.0,0.0,0.0,0.0,0.0,0.0,0.0,0.0,0
1747640563315449567,32,1747640563299001022,,2,1,35.8869743347168,128.61151123046875,0.0,0.0,0.0,0.0,0.0,0.0,0.0,0.0,0.0,0.0,0
1747640563800982546,33,1747640563784001022,,2,1,35.8869743347168,128.61151123046875,0.0,0.0,0.0,0.0,0.0,0.0,0.0,0.0,0.0,0.0,0
1747640564056972897,34,1747640564039001022,,2,1,35.8869743347168,128.61151123046875,0.0,0.0,0.0,0.0,0.0,0.0,0.0,0.0,0.0,0.0,0
1747640564310908838,35,1747640564293001022,,2,1,35.8869743347168,128.61151123046875,0.0,0.0,0.0,0.0,0.0,0.0,0.0,0.0,0.0,0.0,0
1747640564557399665,36,1747640564539001022,,2,1,35.8869743347168,128.61151123046875,0.0,0.0,0.0,0.0,0.0,0.0,0.0,0.0,0.0,0.0,0
1747640564804222574,37,1747640564785001022,,2,1,35.8869743347168,128.61151123046875,0.0,0.0,0.0,0.0,0.0,0.0,0.0,0.0,0.0,0.0,0
1747640565059261450,38,1747640565040001022,,2,1,35.8869743347168,128.61151123046875,0.0,0.0,0.0,0.0,0.0,0.0,0.0,0.0,0.0,0.0,0
1747640565304424994,39,1747640565285001022,,2,1,35.8869743347168,128.61151123046875,0.0,0.0,0.0,0.0,0.0,0.0,0.0,0.0,0.0,0.0,0
1747640565801363862,40,1747640565785112281,,2,1,35.8869743347168,128.61151123046875,0.0,0.0,0.0,0.0,0.0,0.0,0.0,0.0,0.0,0.0,0
1747640565813626783,41,1747640565799112281,,2,1,35.8869743347168,128.61151123046875,0.0,0.0,0.0,0.0,0.0,0.0,0.0,0.0,0.0,0.0,0
1747640566563666925,42,1747640566546112281,,2,1,35.8869743347168,128.61151123046875,0.0,0.0,0.0,0.0,0.0,0.0,0.0,0.0,0.0,0.0,0
1747640566810019598,43,1747640566791112281,,2,1,35.8869743347168,128.61151123046875,0.0,0.0,0.0,0.0,0.0,0.0,0.0,0.0,0.0,0.0,0
1747640567064108831,44,1747640567046112281,,2,1,35.8869743347168,128.61151123046875,0.0,0.0,0.0,0.0,0.0,0.0,0.0,0.0,0.0,0.0,0
1747640567307752093,45,1747640567291112281,,2,1,35.8869743347168,128.61151123046875,0.0,0.0,0.0,0.0,0.0,0.0,0.0,0.0,0.0,0.0,0
1747640567563787645,46,1747640567545112281,,2,1,35.8869743347168,128.61151123046875,0.0,0.0,0.0,0.0,0.0,0.0,0.0,0.0,0.0,0.0,0
1747640567810154204,47,1747640567791112281,,2,1,35.8869743347168,128.61151123046875,0.0,0.0,0.0,0.0,0.0,0.0,0.0,0.0,0.0,0.0,0
1747640568066827657,48,1747640568050002246,,2,1,35.8869743347168,128.61151123046875,0.0,0.0,0.0,0.0,0.0,0.0,0.0,0.0,0.0,0.0,0
1747640568321427831,49,1747640568305002246,,2,1,35.8869743347168,128.61151123046875,0.0,0.0,0.0,0.0,0.0,0.0,0.0,0.0,0.0,0.0,0
1747640568566518198,50,1747640568550002246,,2,1,35.8869743347168,128.61151123046875,0.0,0.0,0.0,0.0,0.0,0.0,0.0,0.0,0.0,0.0,0
1747640568812237510,51,1747640568795002246,,2,1,35.8869743347168,128.61151123046875,0.0,0.0,0.0,0.0,0.0,0.0,0.0,0.0,0.0,0.0,0
1747640569067762354,52,1747640569049002246,,2,1,35.8869743347168,128.61151123046875,0.0,0.0,0.0,0.0,0.0,0.0,0.0,0.0,0.0,0.0,0
1747640569312450736,53,1747640569295002246,,2,1,35.8869743347168,128.61151123046875,0.0,0.0,0.0,0.0,0.0,0.0,0.0,0.0,0.0,0.0,0
1747640569559358964,54,1747640569540002246,,2,1,35.8869743347168,128.61151123046875,0.0,0.0,0.0,0.0,0.0,0.0,0.0,0.0,0.0,0.0,0
1747640569813372630,55,1747640569794002246,,2,1,35.8869743347168,128.61151123046875,0.0,0.0,0.0,0.0,0.0,0.0,0.0,0.0,0.0,0.0,0
1747640570319484571,56,1747640570300002246,,2,1,35.8869743347168,128.61151123046875,0.0,0.0,0.0,0.0,0.0,0.0,0.0,0.0,0.0,0.0,0
1747640570557512857,57,1747640570540569435,,2,1,35.8869743347168,128.61151123046875,0.0,0.0,0.0,0.0,0.0,0.0,0.0,0.0,0.0,0.0,0
1747640570821343264,58,1747640570805569435,,2,1,35.8869743347168,128.61151123046875,0.0,0.0,0.0,0.0,0.0,0.0,0.0,0.0,0.0,0.0,0
1747640571067767277,59,1747640571050569435,,2,1,35.8869743347168,128.61151123046875,0.0,0.0,0.0,0.0,0.0,0.0,0.0,0.0,0.0,0.0,0
1747640571310618850,60,1747640571295569435,,2,1,35.8869743347168,128.6114959716797,0.0,0.0,0.0,0.0,0.0,0.0,0.0,0.0,0.0,0.0,0
1747640571559283190,61,1747640571540569435,,2,1,35.8869743347168,128.6114959716797,0.0,0.0,0.0,0.0,0.0,0.0,0.0,0.0,0.0,0.0,0
1747640571803140587,62,1747640571785569435,,2,1,35.8869743347168,128.6114959716797,0.0,0.0,0.0,0.0,0.0,0.0,0.0,0.0,0.0,0.0,0
1747640572319960685,63,1747640572300569435,,2,1,35.8869743347168,128.6114959716797,0.0,0.0,0.0,0.0,0.0,0.0,0.0,0.0,0.0,0.0,0
1747640572330970788,64,1747640572314569435,,2,1,35.8869743347168,128.6114959716797,0.0,0.0,0.0,0.0,0.0,0.0,0.0,0.0,0.0,0.0,0
1747640572559692453,65,1747640572540569435,,2,1,35.88697814941406,128.6114959716797,0.0,0.0,0.0,0.0,0.0,0.0,0.0,0.0,0.0,0.0,0
1747640573066606915,66,1747640573050330768,,2,1,35.8869743347168,128.6114959716797,0.0,0.0,0.0,0.0,0.0,0.0,0.0,0.0,0.0,0.0,0
1747640573312510402,67,1747640573295330768,,2,1,35.88697814941406,128.61148071289062,0.0,0.0,0.0,0.0,0.0,0.0,0.0,0.0,0.0,0.0,0
1747640573559490095,68,1747640573540330768,,2,1,35.88697814941406,128.61148071289062,0.0,0.0,0.0,0.0,0.0,0.0,0.0,0.0,0.0,0.0,0
1747640573816068905,69,1747640573795330768,,2,1,35.88697814941406,128.61148071289062,0.0,0.0,0.0,0.0,0.0,0.0,0.0,0.0,0.0,0.0,0
1747640574071961882,70,1747640574050330768,,2,1,35.88697814941406,128.61148071289062,0.0,0.0,0.0,0.0,0.0,0.0,0.0,0.0,0.0,0.0,0
1747640574318049859,71,1747640574295330768,,2,1,35.88697814941406,128.61148071289062,0.0,0.0,0.0,0.0,0.0,0.0,0.0,0.0,0.0,0.0,0
1747640574574247450,72,1747640574549330768,,2,1,35.88697814941406,128.61146545410156,0.0,0.0,0.0,0.0,0.0,0.0,0.0,0.0,0.0,0.0,0
1747640574821497710,73,1747640574795330768,,2,1,35.88697814941406,128.61146545410156,0.0,0.0,0.0,0.0,0.0,0.0,0.0,0.0,0.0,0.0,0
1747640575077939129,74,1747640575050330768,,2,1,35.8869743347168,128.61146545410156,0.0,0.0,0.0,0.0,0.0,0.0,0.0,0.0,0.0,0.0,0
1747640575322568593,75,1747640575295330768,,2,1,35.88697814941406,128.61146545410156,0.0,0.0,0.0,0.0,0.0,0.0,0.0,0.0,0.0,0.0,0
1747640575571010959,76,1747640575554466606,,2,1,35.88697814941406,128.61146545410156,0.0,0.0,0.0,0.0,0.0,0.0,0.0,0.0,0.0,0.0,0
1747640575816753558,77,1747640575799466606,,2,1,35.88697814941406,128.6114501953125,0.0,0.0,0.0,0.0,0.0,0.0,0.0,0.0,0.0,0.0,0
1747640576082611819,78,1747640576064466606,,2,1,35.88697814941406,128.6114501953125,0.0,0.0,0.0,0.0,0.0,0.0,0.0,0.0,0.0,0.0,0
1747640576319084998,79,1747640576299466606,,2,1,35.8869743347168,128.6114501953125,0.0,0.0,0.0,0.0,0.0,0.0,0.0,0.0,0.0,0.0,0
1747640576576063550,80,1747640576553466606,,2,1,35.88697814941406,128.6114501953125,0.0,0.0,0.0,0.0,0.0,0.0,0.0,0.0,0.0,0.0,0
1747640576832433517,81,1747640576809466606,,2,1,35.88697814941406,128.6114501953125,0.0,0.0,0.0,0.0,0.0,0.0,0.0,0.0,0.0,0.0,0
1747640577079511897,82,1747640577054466606,,2,1,35.88697814941406,128.6114501953125,0.0,0.0,0.0,0.0,0.0,0.0,0.0,0.0,0.0,0.0,0
1747640577334622946,83,1747640577308466606,,2,1,35.88697814941406,128.61143493652344,0.0,0.0,0.0,0.0,0.0,0.0,0.0,0.0,0.0,0.0,0
1747640577581322065,84,1747640577554466606,,2,1,35.8869743347168,128.61143493652344,0.0,0.0,0.0,0.0,0.0,0.0,0.0,0.0,0.0,0.0,0
1747640577826730285,85,1747640577799466606,,2,1,35.88697814941406,128.61143493652344,0.0,0.0,0.0,0.0,0.0,0.0,0.0,0.0,0.0,0.0,0
1747640578075040223,86,1747640578058600059,,1,1,35.88697814941406,128.61143493652344,0.0,0.0,0.0,0.0,0.0,0.0,0.0,0.0,0.0,0.0,0
1747640578339736734,87,1747640578323600059,,1,1,35.88697814941406,128.61143493652344,0.0,0.0,0.0,0.0,0.0,0.0,0.0,0.0,0.0,0.0,0
1747640578577536208,88,1747640578558600059,,2,1,35.8869743347168,128.61143493652344,0.0,0.0,0.0,0.0,0.0,0.0,0.0,0.0,0.0,0.0,0
1747640578833581924,89,1747640578812600059,,2,1,35.8869743347168,128.61143493652344,0.0,0.0,0.0,0.0,0.0,0.0,0.0,0.0,0.0,0.0,0
1747640579089152653,90,1747640579068600059,,2,1,35.88697814941406,128.61141967773438,0.0,0.0,0.0,0.0,0.0,0.0,0.0,0.0,0.0,0.0,0
1747640579336143465,91,1747640579313600059,,2,1,35.88697814941406,128.61141967773438,0.0,0.0,0.0,0.0,0.0,0.0,0.0,0.0,0.0,0.0,0
1747640579842028808,92,1747640579818600059,,-1,1,0.0,0.0,0.0,0.0,0.0,0.0,0.0,0.0,0.0,0.0,0.0,0.0,0
1747640580087456757,93,1747640580062600059,,2,1,35.8869743347168,128.61141967773438,0.0,0.0,0.0,0.0,0.0,0.0,0.0,0.0,0.0,0.0,0
1747640580344078874,94,1747640580317600059,,2,1,35.88697814941406,128.6114044189453,0.0,0.0,0.0,0.0,0.0,0.0,0.0,0.0,0.0,0.0,0
1747640580590623333,95,1747640580573913612,,2,1,35.88697814941406,128.6114044189453,0.0,0.0,0.0,0.0,0.0,0.0,0.0,0.0,0.0,0.0,0
1747640580837964434,96,1747640580818913612,,2,1,35.8869743347168,128.6114044189453,0.0,0.0,0.0,0.0,0.0,0.0,0.0,0.0,0.0,0.0,0
1747640581094518402,97,1747640581074913612,,2,1,35.8869743347168,128.6114044189453,0.0,0.0,0.0,0.0,0.0,0.0,0.0,0.0,0.0,0.0,0
1747640581349329168,98,1747640581329913612,,2,1,35.88697814941406,128.6114044189453,0.0,0.0,0.0,0.0,0.0,0.0,0.0,0.0,0.0,0.0,0
1747640581847859669,99,1747640581824913612,,2,1,35.88697814941406,128.61138916015625,0.0,0.0,0.0,0.0,0.0,0.0,0.0,0.0,0.0,0.0,0
1747640582094321189,100,1747640582070913612,,2,1,35.88697814941406,128.61138916015625,0.0,0.0,0.0,0.0,0.0,0.0,0.0,0.0,0.0,0.0,0
1747640582350192025,101,1747640582325913612,,-1,1,355.04998779296875,0.0,0.0,0.0,0.0,0.0,0.0,0.0,0.0,0.0,0.0,0.0,0
1747640582596433104,102,1747640582570913612,,2,1,35.88697814941406,128.61138916015625,0.0,0.0,0.0,0.0,0.0,0.0,0.0,0.0,0.0,0.0,0
1747640583095407709,103,1747640583078564506,,2,1,35.88697814941406,128.61138916015625,0.0,0.0,0.0,0.0,0.0,0.0,0.0,0.0,0.0,0.0,0
1747640583107975258,104,1747640583092564506,,2,1,35.88697814941406,128.61138916015625,0.0,0.0,0.0,0.0,0.0,0.0,0.0,0.0,0.0,0.0,0
1747640583596730497,105,1747640583577564506,,2,1,35.88697814941406,128.6113739013672,0.0,0.0,0.0,0.0,0.0,0.0,0.0,0.0,0.0,0.0,0
1747640584102633331,106,1747640584082564506,,2,1,35.88697814941406,128.6113739013672,0.0,0.0,0.0,0.0,0.0,0.0,0.0,0.0,0.0,0.0,0
1747640584348424561,107,1747640584327564506,,2,1,35.88697814941406,128.6113739013672,0.0,0.0,0.0,0.0,0.0,0.0,0.0,0.0,0.0,0.0,0
1747640584846193692,108,1747640584822564506,,2,1,35.88697814941406,128.61135864257812,0.0,0.0,0.0,0.0,0.0,0.0,0.0,0.0,0.0,0.0,0
1747640585102022515,109,1747640585077564506,,2,1,35.88697814941406,128.61135864257812,0.0,0.0,0.0,0.0,0.0,0.0,0.0,0.0,0.0,0.0,0
1747640585348548077,110,1747640585322564506,,2,1,35.88697814941406,128.61135864257812,0.0,0.0,0.0,0.0,0.0,0.0,0.0,0.0,0.0,0.0,0
1747640585605383215,111,1747640585578564506,,2,1,35.88697814941406,128.61135864257812,0.0,0.0,0.0,0.0,0.0,0.0,0.0,0.0,0.0,0.0,0
1747640585861362535,112,1747640585843969726,,2,1,35.88697814941406,128.61135864257812,0.0,0.0,0.0,0.0,0.0,0.0,0.0,0.0,0.0,0.0,0
1747640586368959352,113,1747640586349969726,,2,1,35.88697814941406,128.61134338378906,0.0,0.0,0.0,0.0,0.0,0.0,0.0,0.0,0.0,0.0,0
1747640586615161323,114,1747640586594969726,,2,1,35.88697814941406,128.61134338378906,0.0,0.0,0.0,0.0,0.0,0.0,0.0,0.0,0.0,0.0,0
1747640586870204271,115,1747640586848969726,,2,1,35.88697814941406,128.61134338378906,0.0,0.0,0.0,0.0,0.0,0.0,0.0,0.0,0.0,0.0,0
1747640587106920495,116,1747640587084969726,,2,1,35.88697814941406,128.61134338378906,0.0,0.0,0.0,0.0,0.0,0.0,0.0,0.0,0.0,0.0,0
1747640587373188106,117,1747640587349969726,,2,1,35.88697814941406,128.61134338378906,0.0,0.0,0.0,0.0,0.0,0.0,0.0,0.0,0.0,0.0,0
1747640587618601950,118,1747640587593969726,,2,1,35.88697814941406,128.61134338378906,0.0,0.0,0.0,0.0,0.0,0.0,0.0,0.0,0.0,0.0,0
1747640587864545670,119,1747640587839969726,,2,1,35.88697814941406,128.611328125,0.0,0.0,0.0,0.0,0.0,0.0,0.0,0.0,0.0,0.0,0
1747640588121485204,120,1747640588106083723,,2,1,35.88697814941406,128.611328125,0.0,0.0,0.0,0.0,0.0,0.0,0.0,0.0,0.0,0.0,0
1747640588367963793,121,1747640588351083723,,2,1,35.88697814941406,128.611328125,0.0,0.0,0.0,0.0,0.0,0.0,0.0,0.0,0.0,0.0,0
1747640588614600226,122,1747640588597083723,,2,1,35.88697814941406,128.611328125,0.0,0.0,0.0,0.0,0.0,0.0,0.0,0.0,0.0,0.0,0
1747640588870754545,123,1747640588851083723,,2,1,35.88697814941406,128.611328125,0.0,0.0,0.0,0.0,0.0,0.0,0.0,0.0,0.0,0.0,0
1747640589117258922,124,1747640589097083723,,2,1,35.88697814941406,128.611328125,0.0,0.0,0.0,0.0,0.0,0.0,0.0,0.0,0.0,0.0,0
1747640589383789181,125,1747640589362083723,,2,1,35.88697814941406,128.61131286621094,0.0,0.0,0.0,0.0,0.0,0.0,0.0,0.0,0.0,0.0,0
1747640589618935054,126,1747640589597083723,,2,1,35.88697814941406,128.61131286621094,0.0,0.0,0.0,0.0,0.0,0.0,0.0,0.0,0.0,0.0,0
1747640589865207985,127,1747640589841083723,,1,1,35.88697814941406,128.61131286621094,0.0,0.0,0.0,0.0,0.0,0.0,0.0,0.0,0.0,0.0,0
1747640590612760880,128,1747640590587083723,,2,1,35.88697814941406,128.61131286621094,0.0,0.0,0.0,0.0,0.0,0.0,0.0,0.0,0.0,0.0,0
1747640591130990623,129,1747640591114856792,,1,1,35.88697814941406,128.61129760742188,0.0,0.0,0.0,0.0,0.0,0.0,0.0,0.0,0.0,0.0,0
1747640591377037271,130,1747640591359856792,,1,1,35.88697814941406,128.61129760742188,0.0,0.0,0.0,0.0,0.0,0.0,0.0,0.0,0.0,0.0,0
1747640591895831688,131,1747640591876856792,,-1,1,35.88697814941406,128.0500030517578,0.0,0.0,0.0,0.0,0.0,0.0,0.0,0.0,0.0,0.0,0
1747640592141509434,132,1747640592120856792,,2,1,35.88697814941406,128.6112823486328,0.0,0.0,0.0,0.0,0.0,0.0,0.0,0.0,0.0,0.0,0
1747640592386401620,133,1747640592365856792,,2,1,35.88697814941406,128.6112823486328,0.0,0.0,0.0,0.0,0.0,0.0,0.0,0.0,0.0,0.0,0
1747640592633029482,134,1747640592610856792,,1,1,35.88697814941406,128.6112823486328,0.0,0.0,0.0,0.0,0.0,0.0,0.0,0.0,0.0,0.0,0
1747640592878135601,135,1747640592855856792,,2,1,35.88697814941406,128.6112823486328,0.0,0.0,0.0,0.0,0.0,0.0,0.0,0.0,0.0,0.0,0
1747640593380616033,136,1747640593360253149,,1,1,35.88697814941406,128.6112823486328,0.0,0.0,0.0,0.0,0.0,0.0,0.0,0.0,0.0,0.0,0
1747640593624648858,137,1747640593605253149,,1,1,35.88697814941406,128.61126708984375,0.0,0.0,0.0,0.0,0.0,0.0,0.0,0.0,0.0,0.0,0
1747640594130635311,138,1747640594110253149,,2,1,35.88697814941406,128.61126708984375,0.0,0.0,0.0,0.0,0.0,0.0,0.0,0.0,0.0,0.0,0
1747640594376503974,139,1747640594355253149,,2,1,35.88697814941406,128.61126708984375,0.0,0.0,0.0,0.0,0.0,0.0,0.0,0.0,0.0,0.0,0
1747640594622510750,140,1747640594600253149,,2,1,35.88697814941406,128.61126708984375,0.0,0.0,0.0,0.0,0.0,0.0,0.0,0.0,0.0,0.0,0
1747640595390060955,141,1747640595365253149,,2,1,35.88697814941406,128.6112518310547,0.0,0.0,0.0,0.0,0.0,0.0,0.0,0.0,0.0,0.0,0
1747640595636289219,142,1747640595610253149,,2,1,35.88697814941406,128.6112518310547,0.0,0.0,0.0,0.0,0.0,0.0,0.0,0.0,0.0,0.0,0
1747640596144046178,143,1747640596125933938,,-1,1,355.04998779296875,0.0,0.0,0.0,0.0,0.0,0.0,0.0,0.0,0.0,0.0,0.0,0
1747640596629402189,144,1747640596609933938,,2,1,35.88698196411133,128.61123657226562,0.0,0.0,0.0,0.0,0.0,0.0,0.0,0.0,0.0,0.0,0
1747640596885276534,145,1747640596863933938,,2,1,35.88698196411133,128.61123657226562,0.0,0.0,0.0,0.0,0.0,0.0,0.0,0.0,0.0,0.0,0
1747640597392260176,146,1747640597368933938,,2,1,35.88698196411133,128.61123657226562,0.0,0.0,0.0,0.0,0.0,0.0,0.0,0.0,0.0,0.0,0
1747640597640186719,147,1747640597615933938,,2,1,35.88698196411133,128.61122131347656,0.0,0.0,0.0,0.0,0.0,0.0,0.0,0.0,0.0,0.0,0
1747640598136887408,148,1747640598110933938,,2,1,35.88698196411133,128.61122131347656,0.0,0.0,0.0,0.0,0.0,0.0,0.0,0.0,0.0,0.0,0
1747640598877932772,149,1747640598858750347,,2,1,35.88698196411133,128.61122131347656,0.0,0.0,0.0,0.0,0.0,0.0,0.0,0.0,0.0,0.0,0
1747640599143950717,150,1747640599123750347,,2,1,35.88698196411133,128.6112060546875,0.0,0.0,0.0,0.0,0.0,0.0,0.0,0.0,0.0,0.0,0
1747640599389857218,151,1747640599368750347,,2,1,35.88698196411133,128.6112060546875,0.0,0.0,0.0,0.0,0.0,0.0,0.0,0.0,0.0,0.0,0
1747640599635135116,152,1747640599613750347,,2,1,35.88698196411133,128.6112060546875,0.0,0.0,0.0,0.0,0.0,0.0,0.0,0.0,0.0,0.0,0
1747640599891341795,153,1747640599867750347,,2,1,35.88698196411133,128.6112060546875,0.0,0.0,0.0,0.0,0.0,0.0,0.0,0.0,0.0,0.0,0
1747640600398423445,154,1747640600373750347,,2,1,35.88698196411133,128.61119079589844,0.0,0.0,0.0,0.0,0.0,0.0,0.0,0.0,0.0,0.0,0
1747640600643427247,155,1747640600617750347,,2,1,35.88698196411133,128.61119079589844,0.0,0.0,0.0,0.0,0.0,0.0,0.0,0.0,0.0,0.0,0
1747640600901391323,156,1747640600883341274,,2,1,35.88698196411133,128.61119079589844,0.0,0.0,0.0,0.0,0.0,0.0,0.0,0.0,0.0,0.0,0
1747640601166383116,157,1747640601148341274,,-1,1,355.0,0.0,0.0,0.0,0.0,0.0,0.0,0.0,0.0,0.0,0.0,0.0,0
1747640601421621537,158,1747640601402341274,,1,1,35.88698196411133,128.61119079589844,0.0,0.0,0.0,0.0,0.0,0.0,0.0,0.0,0.0,0.0,0
1747640601648080908,159,1747640601628341274,,1,1,35.88698196411133,128.61117553710938,0.0,0.0,0.0,0.0,0.0,0.0,0.0,0.0,0.0,0.0,0
1747640601903342049,160,1747640601883341274,,1,1,35.88698196411133,128.61117553710938,0.0,0.0,0.0,0.0,0.0,0.0,0.0,0.0,0.0,0.0,0
1747640602149003623,161,1747640602128341274,,2,1,35.88698196411133,128.61117553710938,0.0,0.0,0.0,0.0,0.0,0.0,0.0,0.0,0.0,0.0,0
1747640602394960554,162,1747640602373341274,,2,1,35.88698196411133,128.61117553710938,0.0,0.0,0.0,0.0,0.0,0.0,0.0,0.0,0.0,0.0,0
1747640602651218264,163,1747640602627341274,,2,1,35.88698196411133,128.61117553710938,0.0,0.0,0.0,0.0,0.0,0.0,0.0,0.0,0.0,0.0,0
1747640602896900684,164,1747640602873341274,,2,1,35.88698196411133,128.6111602783203,0.0,0.0,0.0,0.0,0.0,0.0,0.0,0.0,0.0,0.0,0
1747640603384745231,165,1747640603367214447,,2,1,35.88698196411133,128.6111602783203,0.0,0.0,0.0,0.0,0.0,0.0,0.0,0.0,0.0,0.0,0
1747640603396291296,166,1747640603381214447,,2,1,35.886985778808594,128.6111602783203,0.0,0.0,0.0,0.0,0.0,0.0,0.0,0.0,0.0,0.0,0
1747640603644312103,167,1747640603626214447,,2,1,35.88698196411133,128.6111602783203,0.0,0.0,0.0,0.0,0.0,0.0,0.0,0.0,0.0,0.0,0
1747640603891254246,168,1747640603872214447,,2,1,35.88698196411133,128.6111602783203,0.0,0.0,0.0,0.0,0.0,0.0,0.0,0.0,0.0,0.0,0
1747640604397184642,169,1747640604377214447,,2,1,35.886985778808594,128.61114501953125,0.0,0.0,0.0,0.0,0.0,0.0,0.0,0.0,0.0,0.0,0
1747640604643920657,170,1747640604621214447,,2,1,35.886985778808594,128.61114501953125,0.0,0.0,0.0,0.0,0.0,0.0,0.0,0.0,0.0,0.0,0
1747640604889371217,171,1747640604867214447,,2,1,35.886985778808594,128.61114501953125,0.0,0.0,0.0,0.0,0.0,0.0,0.0,0.0,0.0,0.0,0
1747640605145201411,172,1747640605121214447,,2,1,35.886985778808594,128.61114501953125,0.0,0.0,0.0,0.0,0.0,0.0,0.0,0.0,0.0,0.0,0
1747640605401489080,173,1747640605377214447,,2,1,35.886985778808594,128.61114501953125,0.0,0.0,0.0,0.0,0.0,0.0,0.0,0.0,0.0,0.0,0
1747640605648076627,174,1747640605623214447,,2,1,35.886985778808594,128.6111297607422,0.0,0.0,0.0,0.0,0.0,0.0,0.0,0.0,0.0,0.0,0
1747640605894284402,175,1747640605877827888,,2,1,35.886985778808594,128.6111297607422,0.0,0.0,0.0,0.0,0.0,0.0,0.0,0.0,0.0,0.0,0
1747640606150521087,176,1747640606132827888,,2,1,35.886985778808594,128.6111297607422,0.0,0.0,0.0,0.0,0.0,0.0,0.0,0.0,0.0,0.0,0
1747640606395437780,177,1747640606377827888,,2,1,35.886985778808594,128.6111297607422,0.0,0.0,0.0,0.0,0.0,0.0,0.0,0.0,0.0,0.0,0
1747640607154357850,178,1747640607133827888,,2,1,35.886985778808594,128.61111450195312,0.0,0.0,0.0,0.0,0.0,0.0,0.0,0.0,0.0,0.0,0
1747640607400277029,179,1747640607377827888,,2,1,35.886985778808594,128.61111450195312,0.0,0.0,0.0,0.0,0.0,0.0,0.0,0.0,0.0,0.0,0
1747640607646291136,180,1747640607623827888,,2,1,35.886985778808594,128.61111450195312,0.0,0.0,0.0,0.0,0.0,0.0,0.0,0.0,0.0,0.0,0
1747640607891386212,181,1747640607867827888,,2,1,35.886985778808594,128.61111450195312,0.0,0.0,0.0,0.0,0.0,0.0,0.0,0.0,0.0,0.0,0
1747640608398109568,182,1747640608382589813,,2,1,35.886985778808594,128.61111450195312,0.0,0.0,0.0,0.0,0.0,0.0,0.0,0.0,0.0,0.0,0
1747640608413825909,183,1747640608396589813,,2,1,35.886985778808594,128.61109924316406,0.0,0.0,0.0,0.0,0.0,0.0,0.0,0.0,0.0,0.0,0
1747640608641398976,184,1747640608622589813,,2,1,35.886985778808594,128.61109924316406,0.0,0.0,0.0,0.0,0.0,0.0,0.0,0.0,0.0,0.0,0
1747640608895761255,185,1747640608877589813,,2,1,35.886985778808594,128.61109924316406,0.0,0.0,0.0,0.0,0.0,0.0,0.0,0.0,0.0,0.0,0
1747640609152112527,186,1747640609132589813,,2,1,35.886985778808594,128.61109924316406,0.0,0.0,0.0,0.0,0.0,0.0,0.0,0.0,0.0,0.0,0
1747640609396738498,187,1747640609377589813,,2,1,35.886985778808594,128.61109924316406,0.0,0.0,0.0,0.0,0.0,0.0,0.0,0.0,0.0,0.0,0
1747640609894594497,188,1747640609872589813,,2,1,35.886985778808594,128.611083984375,0.0,0.0,0.0,0.0,0.0,0.0,0.0,0.0,0.0,0.0,0
1747640610150651172,189,1747640610127589813,,2,1,35.886985778808594,128.611083984375,0.0,0.0,0.0,0.0,0.0,0.0,0.0,0.0,0.0,0.0,0
1747640610396401573,190,1747640610372589813,,2,1,35.886985778808594,128.611083984375,0.0,0.0,0.0,0.0,0.0,0.0,0.0,0.0,0.0,0.0,0
1747640610893060900,191,1747640610877339578,,2,1,35.886985778808594,128.611083984375,0.0,0.0,0.0,0.0,0.0,0.0,0.0,0.0,0.0,0.0,0
1747640611159123251,192,1747640611141339578,,2,1,35.886985778808594,128.61106872558594,0.0,0.0,0.0,0.0,0.0,0.0,0.0,0.0,0.0,0.0,0
1747640611403666075,193,1747640611386339578,,2,1,35.886985778808594,128.61106872558594,0.0,0.0,0.0,0.0,0.0,0.0,0.0,0.0,0.0,0.0,0
1747640611900446004,194,1747640611882339578,,2,1,35.886985778808594,128.61106872558594,0.0,0.0,0.0,0.0,0.0,0.0,0.0,0.0,0.0,0.0,0
1747640612156418638,195,1747640612137339578,,2,1,35.886985778808594,128.61106872558594,0.0,0.0,0.0,0.0,0.0,0.0,0.0,0.0,0.0,0.0,0
1747640612402344909,196,1747640612382339578,,2,1,35.886985778808594,128.61106872558594,0.0,0.0,0.0,0.0,0.0,0.0,0.0,0.0,0.0,0.0,0
1747640612658352304,197,1747640612637339578,,2,1,35.886985778808594,128.61106872558594,0.0,0.0,0.0,0.0,0.0,0.0,0.0,0.0,0.0,0.0,0
1747640613406977160,198,1747640613390857673,,1,1,35.886985778808594,128.61105346679688,0.0,0.0,0.0,0.0,0.0,0.0,0.0,0.0,0.0,0.0,0
1747640613662391454,199,1747640613645857673,,1,1,35.886985778808594,128.61105346679688,0.0,0.0,0.0,0.0,0.0,0.0,0.0,0.0,0.0,0.0,0
1747640613908818926,200,1747640613890857673,,1,1,35.88698196411133,128.6110382080078,0.0,0.0,0.0,0.0,0.0,0.0,0.0,0.0,0.0,0.0,0
1747640614154667170,201,1747640614135857673,,1,1,35.8869743347168,128.6110382080078,0.0,0.0,0.0,0.0,0.0,0.0,0.0,0.0,0.0,0.0,0
1747640614409329086,202,1747640614390857673,,1,1,35.8869743347168,128.6110382080078,0.0,0.0,0.0,0.0,0.0,0.0,0.0,0.0,0.0,0.0,0
1747640615156970650,203,1747640615135857673,,1,1,35.88697052001953,128.61102294921875,0.0,0.0,0.0,0.0,0.0,0.0,0.0,0.0,0.0,0.0,0
1747640615663930970,204,1747640615640857673,,1,1,35.88697052001953,128.6110076904297,0.0,0.0,0.0,0.0,0.0,0.0,0.0,0.0,0.0,0.0,0
1747640615910983106,205,1747640615894028154,,1,1,35.88697052001953,128.6110076904297,0.0,0.0,0.0,0.0,0.0,0.0,0.0,0.0,0.0,0.0,0
1747640616406242878,206,1747640616389028154,,1,1,35.88697052001953,128.6110076904297,0.0,0.0,0.0,0.0,0.0,0.0,0.0,0.0,0.0,0.0,0
1747640616662826170,207,1747640616644028154,,1,1,35.88697052001953,128.6110076904297,0.0,0.0,0.0,0.0,0.0,0.0,0.0,0.0,0.0,0.0,0
1747640617158130011,208,1747640617139028154,,1,1,35.88697052001953,128.61099243164062,0.0,0.0,0.0,0.0,0.0,0.0,0.0,0.0,0.0,0.0,0
1747640617405494274,209,1747640617384028154,,1,1,35.88697052001953,128.61099243164062,0.0,0.0,0.0,0.0,0.0,0.0,0.0,0.0,0.0,0.0,0
1747640617659794615,210,1747640617639028154,,1,1,35.88697052001953,128.61099243164062,0.0,0.0,0.0,0.0,0.0,0.0,0.0,0.0,0.0,0.0,0
1747640617905726762,211,1747640617884028154,,1,1,35.88697052001953,128.61099243164062,0.0,0.0,0.0,0.0,0.0,0.0,0.0,0.0,0.0,0.0,0
1747640618181697040,212,1747640618159028154,,1,1,35.886966705322266,128.61099243164062,0.0,0.0,0.0,0.0,0.0,0.0,0.0,0.0,0.0,0.0,0
1747640618406056161,213,1747640618390332408,,0,1,35.886966705322266,128.61099243164062,0.0,0.0,0.0,0.0,0.0,0.0,0.0,0.0,0.0,0.0,0
1747640618653109003,214,1747640618635332408,,0,1,35.886966705322266,128.61097717285156,0.0,0.0,0.0,0.0,0.0,0.0,0.0,0.0,0.0,0.0,0
1747640618909247949,215,1747640618890332408,,0,1,35.886966705322266,128.61097717285156,0.0,0.0,0.0,0.0,0.0,0.0,0.0,0.0,0.0,0.0,0
1747640619184182131,216,1747640619165332408,,-1,1,35.886959075927734,0.0,0.0,0.0,0.0,0.0,0.0,0.0,0.0,0.0,0.0,0.0,0
1747640619417920815,217,1747640619397332408,,1,1,35.88695526123047,128.61097717285156,0.0,0.0,0.0,0.0,0.0,0.0,0.0,0.0,0.0,0.0,0
1747640619664194309,218,1747640619643332408,,1,1,35.88694763183594,128.6109619140625,0.0,0.0,0.0,0.0,0.0,0.0,0.0,0.0,0.0,0.0,0
1747640619909603066,219,1747640619888332408,,1,1,35.8869514465332,128.6109619140625,0.0,0.0,0.0,0.0,0.0,0.0,0.0,0.0,0.0,0.0,0
1747640620165286704,220,1747640620142332408,,1,1,35.88695526123047,128.6109619140625,0.0,0.0,0.0,0.0,0.0,0.0,0.0,0.0,0.0,0.0,0
1747640620419761212,221,1747640620398332408,,1,1,35.88695526123047,128.6109619140625,0.0,0.0,0.0,0.0,0.0,0.0,0.0,0.0,0.0,0.0,0
1747640620656367579,222,1747640620633332408,,1,1,35.88695526123047,128.6109619140625,0.0,0.0,0.0,0.0,0.0,0.0,0.0,0.0,0.0,0.0,0
1747640620912752649,223,1747640620897414146,,1,1,0.0,0.0,0.0,0.0,0.0,0.0,0.0,0.0,0.0,0.0,0.0,0.0,0
1747640621407355889,224,1747640621390414146,,1,1,35.88695526123047,128.61094665527344,0.0,0.0,0.0,0.0,0.0,0.0,0.0,0.0,0.0,0.0,0
1747640621664121735,225,1747640621646414146,,1,1,35.88695526123047,128.61094665527344,0.0,0.0,0.0,0.0,0.0,0.0,0.0,0.0,0.0,0.0,0
1747640621910362573,226,1747640621891414146,,1,1,35.88695526123047,128.61094665527344,0.0,0.0,0.0,0.0,0.0,0.0,0.0,0.0,0.0,0.0,0
1747640622426459773,227,1747640622406414146,,0,1,35.8869514465332,128.6109161376953,0.0,0.0,0.0,0.0,0.0,0.0,0.0,0.0,0.0,0.0,0
1747640622672706238,228,1747640622652414146,,0,1,35.8869514465332,128.6109161376953,0.0,0.0,0.0,0.0,0.0,0.0,0.0,0.0,0.0,0.0,0
1747640622908990453,229,1747640622887414146,,0,1,35.8869514465332,128.6109161376953,0.0,0.0,0.0,0.0,0.0,0.0,0.0,0.0,0.0,0.0,0
1747640623163897414,230,1747640623142414146,,1,1,35.8869514465332,128.6109161376953,0.0,0.0,0.0,0.0,0.0,0.0,0.0,0.0,0.0,0.0,0
1747640623422088166,231,1747640623404352531,,1,1,35.8869514465332,128.6109161376953,0.0,0.0,0.0,0.0,0.0,0.0,0.0,0.0,0.0,0.0,0
1747640623656936069,232,1747640623640352531,,1,1,35.8869514465332,128.6109161376953,0.0,0.0,0.0,0.0,0.0,0.0,0.0,0.0,0.0,0.0,0
1747640623913525540,233,1747640623895352531,,1,1,35.8869514465332,128.6109161376953,0.0,0.0,0.0,0.0,0.0,0.0,0.0,0.0,0.0,0.0,0
1747640624168472678,234,1747640624150352531,,1,1,35.8869514465332,128.6109161376953,0.0,0.0,0.0,0.0,0.0,0.0,0.0,0.0,0.0,0.0,0
1747640624674928007,235,1747640624655352531,,1,1,35.886962890625,128.6109161376953,0.0,0.0,0.0,0.0,0.0,0.0,0.0,0.0,0.0,0.0,0
1747640625170741956,236,1747640625150352531,,1,1,35.88697052001953,128.6109161376953,0.0,0.0,0.0,0.0,0.0,0.0,0.0,0.0,0.0,0.0,0
1747640625417468896,237,1747640625395352531,,1,1,35.88697052001953,128.6109161376953,0.0,0.0,0.0,0.0,0.0,0.0,0.0,0.0,0.0,0.0,0
1747640626174880559,238,1747640626158512521,,1,1,35.88697052001953,128.61090087890625,0.0,0.0,0.0,0.0,0.0,0.0,0.0,0.0,0.0,0.0,0
1747640626672771869,239,1747640626653512521,,1,1,35.88697052001953,128.61090087890625,0.0,0.0,0.0,0.0,0.0,0.0,0.0,0.0,0.0,0.0,0
1747640626926414977,240,1747640626908512521,,1,1,35.88697052001953,128.61090087890625,0.0,0.0,0.0,0.0,0.0,0.0,0.0,0.0,0.0,0.0,0
1747640627182762886,241,1747640627163512521,,1,1,35.8869743347168,128.61090087890625,0.0,0.0,0.0,0.0,0.0,0.0,0.0,0.0,0.0,0.0,0
1747640627429036284,242,1747640627407512521,,1,1,35.8869743347168,128.61090087890625,0.0,0.0,0.0,0.0,0.0,0.0,0.0,0.0,0.0,0.0,0
1747640627925812816,243,1747640627903512521,,1,1,35.8869743347168,128.6108856201172,0.0,0.0,0.0,0.0,0.0,0.0,0.0,0.0,0.0,0.0,0
1747640628673836575,244,1747640628656153598,,1,1,35.88697814941406,128.6108856201172,0.0,0.0,0.0,0.0,0.0,0.0,0.0,0.0,0.0,0.0,0
1747640628929272377,245,1747640628910153598,,1,1,35.88697814941406,128.6108856201172,0.0,0.0,0.0,0.0,0.0,0.0,0.0,0.0,0.0,0.0,0
1747640629183805781,246,1747640629166153598,,1,1,35.88697814941406,128.6108856201172,0.0,0.0,0.0,0.0,0.0,0.0,0.0,0.0,0.0,0.0,0
1747640629430143222,247,1747640629411153598,,1,1,35.88697814941406,128.61087036132812,0.0,0.0,0.0,0.0,0.0,0.0,0.0,0.0,0.0,0.0,0
1747640629675875657,248,1747640629656153598,,1,1,35.88697814941406,128.61087036132812,0.0,0.0,0.0,0.0,0.0,0.0,0.0,0.0,0.0,0.0,0
1747640629931840087,249,1747640629910153598,,1,1,35.88697814941406,128.61087036132812,0.0,0.0,0.0,0.0,0.0,0.0,0.0,0.0,0.0,0.0,0
1747640630186953069,250,1747640630166153598,,-1,1,35.88697814941406,128.60000610351562,0.0,0.0,0.0,0.0,0.0,0.0,0.0,0.0,0.0,0.0,0
1747640630421595359,251,1747640630400153598,,1,1,35.88697814941406,128.61087036132812,0.0,0.0,0.0,0.0,0.0,0.0,0.0,0.0,0.0,0.0,0
1747640630677644376,252,1747640630655153598,,1,1,35.88697814941406,128.61085510253906,0.0,0.0,0.0,0.0,0.0,0.0,0.0,0.0,0.0,0.0,0
1747640630924946476,253,1747640630908595472,,1,1,35.88698196411133,128.61085510253906,0.0,0.0,0.0,0.0,0.0,0.0,0.0,0.0,0.0,0.0,0
1747640631179087784,254,1747640631163595472,,1,1,35.88698196411133,128.61085510253906,0.0,0.0,0.0,0.0,0.0,0.0,0.0,0.0,0.0,0.0,0
1747640631425181340,255,1747640631408595472,,0,1,35.88698196411133,128.61085510253906,0.0,0.0,0.0,0.0,0.0,0.0,0.0,0.0,0.0,0.0,0
1747640631921768939,256,1747640631903595472,,0,1,35.88698196411133,128.61085510253906,0.0,0.0,0.0,0.0,0.0,0.0,0.0,0.0,0.0,0.0,0
1747640632678446131,257,1747640632658595472,,1,1,35.88698196411133,128.61083984375,0.0,0.0,0.0,0.0,0.0,0.0,0.0,0.0,0.0,0.0,0
1747640632925391364,258,1747640632903595472,,1,1,35.88698196411133,128.61083984375,0.0,0.0,0.0,0.0,0.0,0.0,0.0,0.0,0.0,0.0,0
1747640633189176141,259,1747640633167595472,,1,1,35.88698196411133,128.61083984375,0.0,0.0,0.0,0.0,0.0,0.0,0.0,0.0,0.0,0.0,0
1747640633678034558,260,1747640633660793443,,1,1,35.88698196411133,128.61082458496094,0.0,0.0,0.0,0.0,0.0,0.0,0.0,0.0,0.0,0.0,0
1747640633932805128,261,1747640633915793443,,1,1,35.88698196411133,128.61082458496094,0.0,0.0,0.0,0.0,0.0,0.0,0.0,0.0,0.0,0.0,0
1747640634188091080,262,1747640634170793443,,1,1,35.88698196411133,128.61082458496094,0.0,0.0,0.0,0.0,0.0,0.0,0.0,0.0,0.0,0.0,0
1747640634433403129,263,1747640634414793443,,1,1,35.88698196411133,128.61082458496094,0.0,0.0,0.0,0.0,0.0,0.0,0.0,0.0,0.0,0.0,0
1747640634680137945,264,1747640634660793443,,1,1,35.88698196411133,128.61082458496094,0.0,0.0,0.0,0.0,0.0,0.0,0.0,0.0,0.0,0.0,0
1747640634924992317,265,1747640634905793443,,1,1,35.88698196411133,128.61080932617188,0.0,0.0,0.0,0.0,0.0,0.0,0.0,0.0,0.0,0.0,0
1747640635181475118,266,1747640635160793443,,1,1,35.88698196411133,128.61080932617188,0.0,0.0,0.0,0.0,0.0,0.0,0.0,0.0,0.0,0.0,0
1747640635435881821,267,1747640635414793443,,1,1,35.88698196411133,128.61080932617188,0.0,0.0,0.0,0.0,0.0,0.0,0.0,0.0,0.0,0.0,0
1747640635682438190,268,1747640635660793443,,1,1,35.88698196411133,128.61080932617188,0.0,0.0,0.0,0.0,0.0,0.0,0.0,0.0,0.0,0.0,0
1747640635928545841,269,1747640635913346181,,1,1,35.88697814941406,128.61080932617188,0.0,0.0,0.0,0.0,0.0,0.0,0.0,0.0,0.0,0.0,0
1747640636194471571,270,1747640636178346181,,-1,1,35.88697814941406,128.6107940673828,0.0,0.0,0.0,0.0,0.0,0.0,0.0,0.0,0.0,0.0,0
1747640636438672126,271,1747640636422346181,,1,1,35.88697814941406,128.6107940673828,0.0,0.0,0.0,0.0,0.0,0.0,0.0,0.0,0.0,0.0,0
1747640636674324609,272,1747640636657346181,,1,1,35.88697814941406,128.6107940673828,0.0,0.0,0.0,0.0,0.0,0.0,0.0,0.0,0.0,0.0,0
1747640636930907550,273,1747640636912346181,,1,1,35.88697814941406,128.6107940673828,0.0,0.0,0.0,0.0,0.0,0.0,0.0,0.0,0.0,0.0,0
1747640637186341797,274,1747640637167346181,,1,1,35.88697814941406,128.6107940673828,0.0,0.0,0.0,0.0,0.0,0.0,0.0,0.0,0.0,0.0,0
1747640637431124998,275,1747640637411346181,,1,1,35.88697814941406,128.61077880859375,0.0,0.0,0.0,0.0,0.0,0.0,0.0,0.0,0.0,0.0,0
1747640638178494120,276,1747640638157346181,,-1,1,79.96666717529297,35.88697814941406,0.0,0.0,0.0,0.0,0.0,0.0,0.0,0.0,0.0,0.0,0
1747640638191840020,277,1747640638171346181,,1,1,35.88697814941406,128.61077880859375,0.0,0.0,0.0,0.0,0.0,0.0,0.0,0.0,0.0,0.0,0
1747640638679722950,278,1747640638663741470,,1,1,35.88697814941406,128.61077880859375,0.0,0.0,0.0,0.0,0.0,0.0,0.0,0.0,0.0,0.0,0
1747640639186364333,279,1747640639168741470,,1,1,35.88697814941406,128.6107635498047,0.0,0.0,0.0,0.0,0.0,0.0,0.0,0.0,0.0,0.0,0
1747640639691976839,280,1747640639672741470,,1,1,35.88697814941406,128.6107635498047,0.0,0.0,0.0,0.0,0.0,0.0,0.0,0.0,0.0,0.0,0
1747640639937967851,281,1747640639918741470,,1,1,35.88698196411133,128.6107635498047,0.0,0.0,0.0,0.0,0.0,0.0,0.0,0.0,0.0,0.0,0
1747640640193274489,282,1747640640173741470,,1,1,35.886985778808594,128.6107635498047,0.0,0.0,0.0,0.0,0.0,0.0,0.0,0.0,0.0,0.0,0
1747640640439890781,283,1747640640418741470,,1,1,35.886985778808594,128.6107635498047,0.0,0.0,0.0,0.0,0.0,0.0,0.0,0.0,0.0,0.0,0
1747640640685015525,284,1747640640663741470,,1,1,35.886985778808594,128.6107635498047,0.0,0.0,0.0,0.0,0.0,0.0,0.0,0.0,0.0,0.0,0
1747640640931984579,285,1747640640915263286,,1,1,35.886985778808594,128.61074829101562,0.0,0.0,0.0,0.0,0.0,0.0,0.0,0.0,0.0,0.0,0
1747640641186330232,286,1747640641170263286,,1,1,35.886985778808594,128.61074829101562,0.0,0.0,0.0,0.0,0.0,0.0,0.0,0.0,0.0,0.0,0
1747640641441888138,287,1747640641425263286,,1,1,35.886985778808594,128.61074829101562,0.0,0.0,0.0,0.0,0.0,0.0,0.0,0.0,0.0,0.0,0
1747640641688866493,288,1747640641670263286,,1,1,35.886985778808594,128.61074829101562,0.0,0.0,0.0,0.0,0.0,0.0,0.0,0.0,0.0,0.0,0
1747640641934824833,289,1747640641916263286,,1,1,35.886985778808594,128.61074829101562,0.0,0.0,0.0,0.0,0.0,0.0,0.0,0.0,0.0,0.0,0
1747640642190550927,290,1747640642171263286,,1,1,35.88698196411133,128.61073303222656,0.0,0.0,0.0,0.0,0.0,0.0,0.0,0.0,0.0,0.0,0
1747640642456225561,291,1747640642436263286,,1,1,35.88698196411133,128.61073303222656,0.0,0.0,0.0,0.0,0.0,0.0,0.0,0.0,0.0,0.0,0
1747640642691029110,292,1747640642671263286,,1,1,35.88698196411133,128.61073303222656,0.0,0.0,0.0,0.0,0.0,0.0,0.0,0.0,0.0,0.0,0
1747640642937061140,293,1747640642916263286,,1,1,35.88698196411133,128.61073303222656,0.0,0.0,0.0,0.0,0.0,0.0,0.0,0.0,0.0,0.0,0
1747640643193189735,294,1747640643170263286,,1,1,35.88698196411133,128.61073303222656,0.0,0.0,0.0,0.0,0.0,0.0,0.0,0.0,0.0,0.0,0
1747640643438409652,295,1747640643423063150,,1,1,35.88698196411133,128.6107177734375,0.0,0.0,0.0,0.0,0.0,0.0,0.0,0.0,0.0,0.0,0
1747640643685329745,296,1747640643668063150,,1,1,35.88698196411133,128.6107177734375,0.0,0.0,0.0,0.0,0.0,0.0,0.0,0.0,0.0,0.0,0
1747640643930199495,297,1747640643913063150,,1,1,35.886985778808594,128.6107177734375,0.0,0.0,0.0,0.0,0.0,0.0,0.0,0.0,0.0,0.0,0
1747640644688001385,298,1747640644668063150,,1,1,35.88700485229492,128.6107177734375,0.0,0.0,0.0,0.0,0.0,0.0,0.0,0.0,0.0,0.0,0
1747640644942219991,299,1747640644923063150,,1,1,35.88700485229492,128.6107177734375,0.0,0.0,0.0,0.0,0.0,0.0,0.0,0.0,0.0,0.0,0
1747640645189410517,300,1747640645168063150,,1,1,35.887001037597656,128.61070251464844,0.0,0.0,0.0,0.0,0.0,0.0,0.0,0.0,0.0,0.0,0
1747640645434504446,301,1747640645413063150,,1,1,35.887001037597656,128.61070251464844,0.0,0.0,0.0,0.0,0.0,0.0,0.0,0.0,0.0,0.0,0
1747640645689691330,302,1747640645668063150,,1,1,35.887001037597656,128.61070251464844,0.0,0.0,0.0,0.0,0.0,0.0,0.0,0.0,0.0,0.0,0
1747640646437948595,303,1747640646420307975,,1,1,35.887001037597656,128.61070251464844,0.0,0.0,0.0,0.0,0.0,0.0,0.0,0.0,0.0,0.0,0
1747640646693193186,304,1747640646675307975,,1,1,35.887001037597656,128.61068725585938,0.0,0.0,0.0,0.0,0.0,0.0,0.0,0.0,0.0,0.0,0
1747640646939815999,305,1747640646920307975,,0,1,35.887001037597656,128.61068725585938,0.0,0.0,0.0,0.0,0.0,0.0,0.0,0.0,0.0,0.0,0
1747640647194114012,306,1747640647174307975,,1,1,35.887001037597656,128.61068725585938,0.0,0.0,0.0,0.0,0.0,0.0,0.0,0.0,0.0,0.0,0
1747640647692136038,307,1747640647670307975,,1,1,35.887001037597656,128.61068725585938,0.0,0.0,0.0,0.0,0.0,0.0,0.0,0.0,0.0,0.0,0
1747640647947010600,308,1747640647925307975,,1,1,35.887001037597656,128.61068725585938,0.0,0.0,0.0,0.0,0.0,0.0,0.0,0.0,0.0,0.0,0
1747640648201869613,309,1747640648180307975,,1,1,35.887001037597656,128.6106719970703,0.0,0.0,0.0,0.0,0.0,0.0,0.0,0.0,0.0,0.0,0
1747640648446980546,310,1747640648432197671,,1,1,35.887001037597656,128.6106719970703,0.0,0.0,0.0,0.0,0.0,0.0,0.0,0.0,0.0,0.0,0
1747640648693512828,311,1747640648677197671,,1,1,35.887001037597656,128.6106719970703,0.0,0.0,0.0,0.0,0.0,0.0,0.0,0.0,0.0,0.0,0
1747640648940033141,312,1747640648922197671,,1,1,35.887001037597656,128.6106719970703,0.0,0.0,0.0,0.0,0.0,0.0,0.0,0.0,0.0,0.0,0
1747640649195365221,313,1747640649177197671,,1,1,35.887001037597656,128.6106719970703,0.0,0.0,0.0,0.0,0.0,0.0,0.0,0.0,0.0,0.0,0
1747640649441733855,314,1747640649422197671,,1,1,35.887001037597656,128.6106719970703,0.0,0.0,0.0,0.0,0.0,0.0,0.0,0.0,0.0,0.0,0
1747640649696109708,315,1747640649677197671,,1,1,35.887001037597656,128.61065673828125,0.0,0.0,0.0,0.0,0.0,0.0,0.0,0.0,0.0,0.0,0
1747640650212794079,316,1747640650191197671,,-1,1,35.887001037597656,128.60000610351562,0.0,0.0,0.0,0.0,0.0,0.0,0.0,0.0,0.0,0.0,0
1747640650455766093,317,1747640650434197671,,1,1,35.887001037597656,128.61065673828125,0.0,0.0,0.0,0.0,0.0,0.0,0.0,0.0,0.0,0.0,0
1747640650691470766,318,1747640650670197671,,1,1,35.887001037597656,128.61065673828125,0.0,0.0,0.0,0.0,0.0,0.0,0.0,0.0,0.0,0.0,0
1747640650938520200,319,1747640650916197671,,1,1,35.887001037597656,128.61065673828125,0.0,0.0,0.0,0.0,0.0,0.0,0.0,0.0,0.0,0.0,0
1747640651194707119,320,1747640651177486625,,1,1,35.887001037597656,128.6106414794922,0.0,0.0,0.0,0.0,0.0,0.0,0.0,0.0,0.0,0.0,0
1747640651447134903,321,1747640651432486625,,1,1,35.887001037597656,128.6106414794922,0.0,0.0,0.0,0.0,0.0,0.0,0.0,0.0,0.0,0.0,0
1747640651945731931,322,1747640651927486625,,1,1,35.887001037597656,128.6106414794922,0.0,0.0,0.0,0.0,0.0,0.0,0.0,0.0,0.0,0.0,0
1747640652201678455,323,1747640652182486625,,1,1,35.887001037597656,128.6106414794922,0.0,0.0,0.0,0.0,0.0,0.0,0.0,0.0,0.0,0.0,0
1747640652447116848,324,1747640652427486625,,1,1,35.887001037597656,128.61062622070312,0.0,0.0,0.0,0.0,0.0,0.0,0.0,0.0,0.0,0.0,0
1747640652692156732,325,1747640652672486625,,1,1,35.887001037597656,128.61062622070312,0.0,0.0,0.0,0.0,0.0,0.0,0.0,0.0,0.0,0.0,0
1747640653439896627,326,1747640653418486625,,1,1,35.887001037597656,128.61062622070312,0.0,0.0,0.0,0.0,0.0,0.0,0.0,0.0,0.0,0.0,0
1747640653685790052,327,1747640653671773487,,1,1,35.887001037597656,128.61062622070312,0.0,0.0,0.0,0.0,0.0,0.0,0.0,0.0,0.0,0.0,0
1747640653941594896,328,1747640653926773487,,0,1,35.887001037597656,128.61061096191406,0.0,0.0,0.0,0.0,0.0,0.0,0.0,0.0,0.0,0.0,0
1747640654197813173,329,1747640654181773487,,1,1,35.887001037597656,128.61061096191406,0.0,0.0,0.0,0.0,0.0,0.0,0.0,0.0,0.0,0.0,0
1747640654451944576,330,1747640654436773487,,1,1,35.887001037597656,128.61061096191406,0.0,0.0,0.0,0.0,0.0,0.0,0.0,0.0,0.0,0.0,0
1747640654689879009,331,1747640654671773487,,0,1,35.887001037597656,128.61061096191406,0.0,0.0,0.0,0.0,0.0,0.0,0.0,0.0,0.0,0.0,0
1747640654945266381,332,1747640654926773487,,0,1,35.887001037597656,128.61061096191406,0.0,0.0,0.0,0.0,0.0,0.0,0.0,0.0,0.0,0.0,0
1747640655200170688,333,1747640655181773487,,1,1,35.887001037597656,128.61061096191406,0.0,0.0,0.0,0.0,0.0,0.0,0.0,0.0,0.0,0.0,0
1747640655454528535,334,1747640655435773487,,1,1,0.0,0.0,0.0,0.0,0.0,0.0,0.0,0.0,0.0,0.0,0.0,0.0,0
1747640655690680408,335,1747640655671773487,,1,1,35.887001037597656,128.610595703125,0.0,0.0,0.0,0.0,0.0,0.0,0.0,0.0,0.0,0.0,0
1747640656198704939,336,1747640656182565265,,1,1,35.887001037597656,128.610595703125,0.0,0.0,0.0,0.0,0.0,0.0,0.0,0.0,0.0,0.0,0
1747640656453085738,337,1747640656436565265,,1,1,35.887001037597656,128.610595703125,0.0,0.0,0.0,0.0,0.0,0.0,0.0,0.0,0.0,0.0,0
1747640656689336511,338,1747640656672565265,,0,1,35.887001037597656,128.610595703125,0.0,0.0,0.0,0.0,0.0,0.0,0.0,0.0,0.0,0.0,0
1747640656945252865,339,1747640656926565265,,0,1,35.887001037597656,128.61058044433594,0.0,0.0,0.0,0.0,0.0,0.0,0.0,0.0,0.0,0.0,0
1747640657200038289,340,1747640657182565265,,1,1,35.887001037597656,128.61058044433594,0.0,0.0,0.0,0.0,0.0,0.0,0.0,0.0,0.0,0.0,0
1747640657947645928,341,1747640657927565265,,1,1,35.887001037597656,128.61058044433594,0.0,0.0,0.0,0.0,0.0,0.0,0.0,0.0,0.0,0.0,0
1747640658202954273,342,1747640658182565265,,1,1,35.887001037597656,128.61056518554688,0.0,0.0,0.0,0.0,0.0,0.0,0.0,0.0,0.0,0.0,0
1747640658448442965,343,1747640658427565265,,1,1,35.887001037597656,128.61056518554688,0.0,0.0,0.0,0.0,0.0,0.0,0.0,0.0,0.0,0.0,0
1747640658693443212,344,1747640658678703351,,1,1,35.887001037597656,128.61056518554688,0.0,0.0,0.0,0.0,0.0,0.0,0.0,0.0,0.0,0.0,0
1747640658951054604,345,1747640658932703351,,1,1,35.887001037597656,128.61056518554688,0.0,0.0,0.0,0.0,0.0,0.0,0.0,0.0,0.0,0.0,0
1747640659197351266,346,1747640659178703351,,1,1,35.887001037597656,128.61056518554688,0.0,0.0,0.0,0.0,0.0,0.0,0.0,0.0,0.0,0.0,0
1747640659442527742,347,1747640659423703351,,1,1,35.887001037597656,128.6105499267578,0.0,0.0,0.0,0.0,0.0,0.0,0.0,0.0,0.0,0.0,0
1747640659698842479,348,1747640659678703351,,0,1,35.887001037597656,128.6105499267578,0.0,0.0,0.0,0.0,0.0,0.0,0.0,0.0,0.0,0.0,0
1747640659943910421,349,1747640659923703351,,0,1,35.887001037597656,128.6105499267578,0.0,0.0,0.0,0.0,0.0,0.0,0.0,0.0,0.0,0.0,0
1747640660699752352,350,1747640660678703351,,1,1,35.887001037597656,128.6105499267578,0.0,0.0,0.0,0.0,0.0,0.0,0.0,0.0,0.0,0.0,0
1747640660956422262,351,1747640660933703351,,1,1,35.887001037597656,128.61053466796875,0.0,0.0,0.0,0.0,0.0,0.0,0.0,0.0,0.0,0.0,0
1747640661202329055,352,1747640661185229272,,0,1,35.887001037597656,128.61053466796875,0.0,0.0,0.0,0.0,0.0,0.0,0.0,0.0,0.0,0.0,0
1747640661449417516,353,1747640661431229272,,0,1,35.887001037597656,128.61053466796875,0.0,0.0,0.0,0.0,0.0,0.0,0.0,0.0,0.0,0.0,0
1747640661704029582,354,1747640661685229272,,0,1,35.887001037597656,128.61053466796875,0.0,0.0,0.0,0.0,0.0,0.0,0.0,0.0,0.0,0.0,0
1747640661938759520,355,1747640661920229272,,0,1,35.887001037597656,128.61053466796875,0.0,0.0,0.0,0.0,0.0,0.0,0.0,0.0,0.0,0.0,0
1747640662195127494,356,1747640662175229272,,0,1,35.887001037597656,128.6105194091797,0.0,0.0,0.0,0.0,0.0,0.0,0.0,0.0,0.0,0.0,0
1747640662438703955,357,1747640662420229272,,0,1,35.887001037597656,128.6105194091797,0.0,0.0,0.0,0.0,0.0,0.0,0.0,0.0,0.0,0.0,0
1747640662694536817,358,1747640662675229272,,0,1,35.887001037597656,128.6105194091797,0.0,0.0,0.0,0.0,0.0,0.0,0.0,0.0,0.0,0.0,0
1747640662951325143,359,1747640662930229272,,0,1,35.887001037597656,128.6105194091797,0.0,0.0,0.0,0.0,0.0,0.0,0.0,0.0,0.0,0.0,0
1747640663196636366,360,1747640663175229272,,0,1,35.887001037597656,128.6105194091797,0.0,0.0,0.0,0.0,0.0,0.0,0.0,0.0,0.0,0.0,0
1747640663693859607,361,1747640663678347612,,0,1,35.887001037597656,128.61050415039062,0.0,0.0,0.0,0.0,0.0,0.0,0.0,0.0,0.0,0.0,0
1747640663949960321,362,1747640663933347612,,0,1,35.887001037597656,128.61050415039062,0.0,0.0,0.0,0.0,0.0,0.0,0.0,0.0,0.0,0.0,0
1747640664205667371,363,1747640664188347612,,1,1,35.887001037597656,128.61050415039062,0.0,0.0,0.0,0.0,0.0,0.0,0.0,0.0,0.0,0.0,0
1747640664461562695,364,1747640664443347612,,1,1,35.887001037597656,128.61050415039062,0.0,0.0,0.0,0.0,0.0,0.0,0.0,0.0,0.0,0.0,0
1747640665207623740,365,1747640665188347612,,1,1,35.887001037597656,128.61048889160156,0.0,0.0,0.0,0.0,0.0,0.0,0.0,0.0,0.0,0.0,0
1747640665463474829,366,1747640665443347612,,1,1,35.887001037597656,128.61048889160156,0.0,0.0,0.0,0.0,0.0,0.0,0.0,0.0,0.0,0.0,0
1747640665709014210,367,1747640665688347612,,1,1,35.887001037597656,128.61048889160156,0.0,0.0,0.0,0.0,0.0,0.0,0.0,0.0,0.0,0.0,0
1747640665954806515,368,1747640665933347612,,1,1,35.887001037597656,128.61048889160156,0.0,0.0,0.0,0.0,0.0,0.0,0.0,0.0,0.0,0.0,0
1747640666210382712,369,1747640666194132600,,1,1,35.887001037597656,128.6104736328125,0.0,0.0,0.0,0.0,0.0,0.0,0.0,0.0,0.0,0.0,0
1747640666707060253,370,1747640666689132600,,1,1,35.887001037597656,128.6104736328125,0.0,0.0,0.0,0.0,0.0,0.0,0.0,0.0,0.0,0.0,0
1747640666952963631,371,1747640666934132600,,0,1,35.887001037597656,128.6104736328125,0.0,0.0,0.0,0.0,0.0,0.0,0.0,0.0,0.0,0.0,0
1747640667208595963,372,1747640667189132600,,1,1,35.887001037597656,128.6104736328125,0.0,0.0,0.0,0.0,0.0,0.0,0.0,0.0,0.0,0.0,0
1747640667463905405,373,1747640667444132600,,-1,1,0.0,0.0,0.0,0.0,0.0,0.0,0.0,0.0,0.0,0.0,0.0,0.0,0
1747640667707644727,374,1747640667688132600,,1,1,35.887001037597656,128.61045837402344,0.0,0.0,0.0,0.0,0.0,0.0,0.0,0.0,0.0,0.0,0
1747640667952747289,375,1747640667933132600,,1,1,35.887001037597656,128.61045837402344,0.0,0.0,0.0,0.0,0.0,0.0,0.0,0.0,0.0,0.0,0
1747640668209195934,376,1747640668187132600,,1,1,35.887001037597656,128.61045837402344,0.0,0.0,0.0,0.0,0.0,0.0,0.0,0.0,0.0,0.0,0
1747640668454142013,377,1747640668433132600,,1,1,35.887001037597656,128.61045837402344,0.0,0.0,0.0,0.0,0.0,0.0,0.0,0.0,0.0,0.0,0
1747640668702765426,378,1747640668685212388,,1,1,35.887001037597656,128.61045837402344,0.0,0.0,0.0,0.0,0.0,0.0,0.0,0.0,0.0,0.0,0
1747640669709321812,379,1747640669690212388,,1,1,35.887001037597656,128.61044311523438,0.0,0.0,0.0,0.0,0.0,0.0,0.0,0.0,0.0,0.0,0
1747640669955067551,380,1747640669935212388,,1,1,35.887001037597656,128.61044311523438,0.0,0.0,0.0,0.0,0.0,0.0,0.0,0.0,0.0,0.0,0
1747640670210799079,381,1747640670190212388,,1,1,35.887001037597656,128.6104278564453,0.0,0.0,0.0,0.0,0.0,0.0,0.0,0.0,0.0,0.0,0
1747640670456296266,382,1747640670435212388,,0,1,35.887001037597656,128.6104278564453,0.0,0.0,0.0,0.0,0.0,0.0,0.0,0.0,0.0,0.0,0
1747640670702526153,383,1747640670680212388,,0,1,35.887001037597656,128.6104278564453,0.0,0.0,0.0,0.0,0.0,0.0,0.0,0.0,0.0,0.0,0
1747640671209306371,384,1747640671192476049,,0,1,35.887001037597656,128.6104278564453,0.0,0.0,0.0,0.0,0.0,0.0,0.0,0.0,0.0,0.0,0
1747640671219993511,385,1747640671206476049,,1,1,35.887001037597656,128.6104278564453,0.0,0.0,0.0,0.0,0.0,0.0,0.0,0.0,0.0,0.0,0
1747640671457681731,386,1747640671440476049,,0,1,35.887001037597656,128.6104278564453,0.0,0.0,0.0,0.0,0.0,0.0,0.0,0.0,0.0,0.0,0
1747640671702847564,387,1747640671685476049,,0,1,35.887001037597656,128.61041259765625,0.0,0.0,0.0,0.0,0.0,0.0,0.0,0.0,0.0,0.0,0
1747640671958530616,388,1747640671940476049,,0,1,35.887001037597656,128.61041259765625,0.0,0.0,0.0,0.0,0.0,0.0,0.0,0.0,0.0,0.0,0
1747640672221594546,389,1747640672204476049,,1,1,35.887001037597656,128.61041259765625,0.0,0.0,0.0,0.0,0.0,0.0,0.0,0.0,0.0,0.0,0
1747640672478967520,390,1747640672459476049,,1,1,35.887001037597656,128.61041259765625,0.0,0.0,0.0,0.0,0.0,0.0,0.0,0.0,0.0,0.0,0
1747640672705972019,391,1747640672685476049,,1,1,35.887001037597656,128.61041259765625,0.0,0.0,0.0,0.0,0.0,0.0,0.0,0.0,0.0,0.0,0
1747640672961242422,392,1747640672940476049,,0,1,35.887001037597656,128.6103973388672,0.0,0.0,0.0,0.0,0.0,0.0,0.0,0.0,0.0,0.0,0
1747640673466948203,393,1747640673445476049,,1,1,35.887001037597656,128.6103973388672,0.0,0.0,0.0,0.0,0.0,0.0,0.0,0.0,0.0,0.0,0
1747640673714963227,394,1747640673697530990,,1,1,35.887001037597656,128.6103973388672,0.0,0.0,0.0,0.0,0.0,0.0,0.0,0.0,0.0,0.0,0
1747640673960130840,395,1747640673942530990,,1,1,35.887001037597656,128.6103973388672,0.0,0.0,0.0,0.0,0.0,0.0,0.0,0.0,0.0,0.0,0
1747640674214632915,396,1747640674197530990,,1,1,35.887001037597656,128.61038208007812,0.0,0.0,0.0,0.0,0.0,0.0,0.0,0.0,0.0,0.0,0
1747640674712311092,397,1747640674692530990,,1,1,35.887001037597656,128.61038208007812,0.0,0.0,0.0,0.0,0.0,0.0,0.0,0.0,0.0,0.0,0
1747640674956646936,398,1747640674937530990,,1,1,35.887001037597656,128.61038208007812,0.0,0.0,0.0,0.0,0.0,0.0,0.0,0.0,0.0,0.0,0
1747640675222633837,399,1747640675201530990,,1,1,35.887001037597656,128.61038208007812,0.0,0.0,0.0,0.0,0.0,0.0,0.0,0.0,0.0,0.0,0
1747640675468349262,400,1747640675446530990,,1,1,35.887001037597656,128.61036682128906,0.0,0.0,0.0,0.0,0.0,0.0,0.0,0.0,0.0,0.0,0
1747640675713173756,401,1747640675692530990,,1,1,35.887001037597656,128.61036682128906,0.0,0.0,0.0,0.0,0.0,0.0,0.0,0.0,0.0,0.0,0
1747640676210578314,402,1747640676195100303,,-1,1,81.26667022705078,35.887001037597656,0.0,0.0,0.0,0.0,0.0,0.0,0.0,0.0,0.0,0.0,0
1747640676223957360,403,1747640676209100303,,1,1,35.887001037597656,128.61036682128906,0.0,0.0,0.0,0.0,0.0,0.0,0.0,0.0,0.0,0.0,0
1747640676469837703,404,1747640676454100303,,1,1,35.887001037597656,128.61036682128906,0.0,0.0,0.0,0.0,0.0,0.0,0.0,0.0,0.0,0.0,0
1747640676706064696,405,1747640676689100303,,1,1,35.887001037597656,128.6103515625,0.0,0.0,0.0,0.0,0.0,0.0,0.0,0.0,0.0,0.0,0
1747640676950878851,406,1747640676934100303,,1,1,35.887001037597656,128.6103515625,0.0,0.0,0.0,0.0,0.0,0.0,0.0,0.0,0.0,0.0,0
1747640677215986690,407,1747640677198100303,,1,1,35.887001037597656,128.6103515625,0.0,0.0,0.0,0.0,0.0,0.0,0.0,0.0,0.0,0.0,0
1747640677462277211,408,1747640677444100303,,1,1,35.887001037597656,128.6103515625,0.0,0.0,0.0,0.0,0.0,0.0,0.0,0.0,0.0,0.0,0
1747640677727180612,409,1747640677708100303,,1,1,35.887001037597656,128.6103515625,0.0,0.0,0.0,0.0,0.0,0.0,0.0,0.0,0.0,0.0,0
1747640677973161648,410,1747640677954100303,,-1,1,35.887001037597656,128.61033630371094,0.0,0.0,0.0,0.0,0.0,0.0,0.0,0.0,0.0,0.0,0
1747640678216986958,411,1747640678198100303,,1,1,35.887001037597656,128.61033630371094,0.0,0.0,0.0,0.0,0.0,0.0,0.0,0.0,0.0,0.0,0
1747640678493640093,412,1747640678473100303,,1,1,35.887001037597656,128.61033630371094,0.0,0.0,0.0,0.0,0.0,0.0,0.0,0.0,0.0,0.0,0
1747640678710736773,413,1747640678693746791,,0,1,35.887001037597656,128.61033630371094,0.0,0.0,0.0,0.0,0.0,0.0,0.0,0.0,0.0,0.0,0
1747640678975155640,414,1747640678958746791,,0,1,35.887001037597656,128.61033630371094,0.0,0.0,0.0,0.0,0.0,0.0,0.0,0.0,0.0,0.0,0
1747640679231249816,415,1747640679213746791,,1,1,35.887001037597656,128.61033630371094,0.0,0.0,0.0,0.0,0.0,0.0,0.0,0.0,0.0,0.0,0
1747640679547724392,416,1747640679529746791,,-1,1,35.887001037597656,128.61032104492188,0.0,0.0,0.0,0.0,0.0,0.0,0.0,0.0,0.0,0.0,0
1747640679723858462,417,1747640679705746791,,0,1,35.887001037597656,128.61032104492188,0.0,0.0,0.0,0.0,0.0,0.0,0.0,0.0,0.0,0.0,0
1747640679969109242,418,1747640679949746791,,0,1,35.887001037597656,128.61032104492188,0.0,0.0,0.0,0.0,0.0,0.0,0.0,0.0,0.0,0.0,0
1747640680225542545,419,1747640680205746791,,1,1,35.887001037597656,128.61032104492188,0.0,0.0,0.0,0.0,0.0,0.0,0.0,0.0,0.0,0.0,0
1747640680490781519,420,1747640680469746791,,1,1,0.0,0.0,0.0,0.0,0.0,0.0,0.0,0.0,0.0,0.0,0.0,0.0,0
1747640680724729374,421,1747640680704746791,,1,1,35.887001037597656,128.6103057861328,0.0,0.0,0.0,0.0,0.0,0.0,0.0,0.0,0.0,0.0,0
1747640680980891737,422,1747640680959746791,,1,1,35.887001037597656,128.6103057861328,0.0,0.0,0.0,0.0,0.0,0.0,0.0,0.0,0.0,0.0,0
1747640681236934572,423,1747640681220700269,,1,1,35.887001037597656,128.6103057861328,0.0,0.0,0.0,0.0,0.0,0.0,0.0,0.0,0.0,0.0,0
1747640681492667773,424,1747640681474700269,,1,1,35.887001037597656,128.6103057861328,0.0,0.0,0.0,0.0,0.0,0.0,0.0,0.0,0.0,0.0,0
1747640681728708533,425,1747640681709700269,,1,1,35.887001037597656,128.6103057861328,0.0,0.0,0.0,0.0,0.0,0.0,0.0,0.0,0.0,0.0,0
1747640681973836533,426,1747640681955700269,,0,1,35.887001037597656,128.61029052734375,0.0,0.0,0.0,0.0,0.0,0.0,0.0,0.0,0.0,0.0,0
1747640682229066292,427,1747640682209700269,,1,1,35.887001037597656,128.61029052734375,0.0,0.0,0.0,0.0,0.0,0.0,0.0,0.0,0.0,0.0,0
1747640682474890389,428,1747640682455700269,,1,1,35.887001037597656,128.61029052734375,0.0,0.0,0.0,0.0,0.0,0.0,0.0,0.0,0.0,0.0,0
1747640682720942093,429,1747640682700700269,,1,1,35.887001037597656,128.61029052734375,0.0,0.0,0.0,0.0,0.0,0.0,0.0,0.0,0.0,0.0,0
1747640682975098427,430,1747640682955700269,,1,1,35.887001037597656,128.61029052734375,0.0,0.0,0.0,0.0,0.0,0.0,0.0,0.0,0.0,0.0,0
1747640683231438788,431,1747640683209700269,,1,1,35.887001037597656,128.6102752685547,0.0,0.0,0.0,0.0,0.0,0.0,0.0,0.0,0.0,0.0,0
1747640683477708385,432,1747640683455700269,,1,1,35.887001037597656,128.6102752685547,0.0,0.0,0.0,0.0,0.0,0.0,0.0,0.0,0.0,0.0,0
1747640683733776569,433,1747640683718740936,,1,1,35.887001037597656,128.6102752685547,0.0,0.0,0.0,0.0,0.0,0.0,0.0,0.0,0.0,0.0,0
1747640683978321622,434,1747640683962740936,,1,1,35.887001037597656,128.6102752685547,0.0,0.0,0.0,0.0,0.0,0.0,0.0,0.0,0.0,0.0,0
1747640684234013031,435,1747640684218740936,,1,1,35.887001037597656,128.6102752685547,0.0,0.0,0.0,0.0,0.0,0.0,0.0,0.0,0.0,0.0,0
1747640684470152854,436,1747640684453740936,,1,1,35.887001037597656,128.61026000976562,0.0,0.0,0.0,0.0,0.0,0.0,0.0,0.0,0.0,0.0,0
1747640684725741421,437,1747640684708740936,,1,1,35.887001037597656,128.61026000976562,0.0,0.0,0.0,0.0,0.0,0.0,0.0,0.0,0.0,0.0,0
1747640684981830840,438,1747640684963740936,,1,1,35.88700485229492,128.61026000976562,0.0,0.0,0.0,0.0,0.0,0.0,0.0,0.0,0.0,0.0,0
1747640685236135558,439,1747640685217740936,,1,1,35.88700485229492,128.61026000976562,0.0,0.0,0.0,0.0,0.0,0.0,0.0,0.0,0.0,0.0,0
1747640685492523455,440,1747640685473740936,,1,1,35.88700485229492,128.61026000976562,0.0,0.0,0.0,0.0,0.0,0.0,0.0,0.0,0.0,0.0,0
1747640685739065249,441,1747640685718740936,,1,1,35.88700485229492,128.61026000976562,0.0,0.0,0.0,0.0,0.0,0.0,0.0,0.0,0.0,0.0,0
1747640685984004700,442,1747640685963740936,,1,1,35.88700866699219,128.61026000976562,0.0,0.0,0.0,0.0,0.0,0.0,0.0,0.0,0.0,0.0,0
1747640686230909084,443,1747640686214045749,,1,1,35.88700866699219,128.61026000976562,0.0,0.0,0.0,0.0,0.0,0.0,0.0,0.0,0.0,0.0,0
1747640686486433614,444,1747640686469045749,,1,1,35.88701248168945,128.61026000976562,0.0,0.0,0.0,0.0,0.0,0.0,0.0,0.0,0.0,0.0,0
1747640686730460764,445,1747640686714045749,,1,1,35.88701248168945,128.61026000976562,0.0,0.0,0.0,0.0,0.0,0.0,0.0,0.0,0.0,0.0,0
1747640686977357689,446,1747640686959045749,,1,1,35.88701248168945,128.61026000976562,0.0,0.0,0.0,0.0,0.0,0.0,0.0,0.0,0.0,0.0,0
1747640687242631320,447,1747640687224045749,,1,1,35.88701629638672,128.61026000976562,0.0,0.0,0.0,0.0,0.0,0.0,0.0,0.0,0.0,0.0,0
1747640687729381193,448,1747640687710045749,,1,1,35.887020111083984,128.61026000976562,0.0,0.0,0.0,0.0,0.0,0.0,0.0,0.0,0.0,0.0,0
1747640688235894190,449,1747640688215045749,,1,1,35.88702392578125,128.61026000976562,0.0,0.0,0.0,0.0,0.0,0.0,0.0,0.0,0.0,0.0,0
1747640688501481011,450,1747640688480045749,,1,1,35.887027740478516,128.61026000976562,0.0,0.0,0.0,0.0,0.0,0.0,0.0,0.0,0.0,0.0,0
1747640688728079655,451,1747640688711559511,,1,1,35.887027740478516,128.61026000976562,0.0,0.0,0.0,0.0,0.0,0.0,0.0,0.0,0.0,0.0,0
1747640688972695567,452,1747640688956559511,,1,1,35.88703155517578,128.61026000976562,0.0,0.0,0.0,0.0,0.0,0.0,0.0,0.0,0.0,0.0,0
1747640689228816924,453,1747640689211559511,,1,1,35.88703155517578,128.61026000976562,0.0,0.0,0.0,0.0,0.0,0.0,0.0,0.0,0.0,0.0,0
1747640689484196373,454,1747640689465559511,,1,1,35.88703536987305,128.61026000976562,0.0,0.0,0.0,0.0,0.0,0.0,0.0,0.0,0.0,0.0,0
1747640689970634183,455,1747640689951559511,,1,1,0.0,0.0,0.0,0.0,0.0,0.0,0.0,0.0,0.0,0.0,0.0,0.0,0
1747640690237059149,456,1747640690216559511,,1,1,35.88704299926758,128.61026000976562,0.0,0.0,0.0,0.0,0.0,0.0,0.0,0.0,0.0,0.0,0
1747640690492265818,457,1747640690471559511,,1,1,35.88704299926758,128.61026000976562,0.0,0.0,0.0,0.0,0.0,0.0,0.0,0.0,0.0,0.0,0
1747640690978692280,458,1747640690956559511,,1,1,35.88705062866211,128.61026000976562,0.0,0.0,0.0,0.0,0.0,0.0,0.0,0.0,0.0,0.0,0
1747640691483765401,459,1747640691468120552,,1,1,35.887054443359375,128.61026000976562,0.0,0.0,0.0,0.0,0.0,0.0,0.0,0.0,0.0,0.0,0
1747640691739902891,460,1747640691722120552,,1,1,35.88705825805664,128.61026000976562,0.0,0.0,0.0,0.0,0.0,0.0,0.0,0.0,0.0,0.0,0
1747640691976667063,461,1747640691957120552,,1,1,35.88705825805664,128.61026000976562,0.0,0.0,0.0,0.0,0.0,0.0,0.0,0.0,0.0,0.0,0
1747640692232086669,462,1747640692213120552,,1,1,35.887062072753906,128.61026000976562,0.0,0.0,0.0,0.0,0.0,0.0,0.0,0.0,0.0,0.0,0
1747640692486672550,463,1747640692468120552,,1,1,35.887062072753906,128.61026000976562,0.0,0.0,0.0,0.0,0.0,0.0,0.0,0.0,0.0,0.0,0
1747640692733336042,464,1747640692713120552,,1,1,35.88706588745117,128.61026000976562,0.0,0.0,0.0,0.0,0.0,0.0,0.0,0.0,0.0,0.0,0
1747640692978247845,465,1747640692958120552,,1,1,35.88706970214844,128.61026000976562,0.0,0.0,0.0,0.0,0.0,0.0,0.0,0.0,0.0,0.0,0
1747640693233270682,466,1747640693213120552,,1,1,35.88706970214844,128.61026000976562,0.0,0.0,0.0,0.0,0.0,0.0,0.0,0.0,0.0,0.0,0
1747640693479223053,467,1747640693458120552,,1,1,35.8870735168457,128.61026000976562,0.0,0.0,0.0,0.0,0.0,0.0,0.0,0.0,0.0,0.0,0
1747640693736476947,468,1747640693720300165,,1,1,35.88707733154297,128.61026000976562,0.0,0.0,0.0,0.0,0.0,0.0,0.0,0.0,0.0,0.0,0
1747640693980171036,469,1747640693965300165,,1,1,35.88707733154297,128.61026000976562,0.0,0.0,0.0,0.0,0.0,0.0,0.0,0.0,0.0,0.0,0
